     2.11           OBSERVATION DATA    G (GPS)             RINEX VERSION / TYPE
teqc  2018Jul24     UNAVCO Archive Ops  20180728 01:05:54UTCPGM / RUN BY / DATE
Solaris x86 5.10|AMD64|cc SC5.8 -xarch=amd64|=+|=+          COMMENT
BIT 2 OF LLI FLAGS DATA COLLECTED UNDER A/S CONDITION       COMMENT
BAKU                                                        MARKER NAME
                                                            MARKER NUMBER
Robert Reilinger    Massachusetts Institute of Technology   OBSERVER / AGENCY
4450241652          TRIMBLE NETRS       1.1-3               REC # / TYPE / VERS
60186856            TRM41249.00     NONE                    ANT # / TYPE
  3139934.3352  3717507.3863  4109616.8112                  APPROX POSITION XYZ
        0.0000        0.0000        0.0000                  ANTENNA: DELTA H/E/N
     1     1                                                WAVELENGTH FACT L1/2
     7    L1    L2    C1    P2    P1    S1    S2            # / TYPES OF OBSERV
    30.0000                                                 INTERVAL
    18                                                      LEAP SECONDS
input file: baku_gia201807270000a.dat                       COMMENT
RINEX file created by UNAVCO GPS Archive.                   COMMENT
For more information contact archive-gps@unavco.org         COMMENT
Monument ID: 21793                                          COMMENT
UNAVCO 4-char name:   BAKU                                  COMMENT
4-char name from Log or data file: BAKU                     COMMENT
Monument location: 40.372176 49.814416 93.2                 COMMENT
Visit ID: 93826                                             COMMENT
End of DB comments                                          COMMENT
 SNR is mapped to RINEX snr flag value [0-9]                COMMENT
  L1 & L2: min(max(int(snr_dBHz/6), 0), 9)                  COMMENT
  2018     7    27     0     0    0.0000000     GPS         TIME OF FIRST OBS
                                                            END OF HEADER
 18  7 27  0  0  0.0000000  0 10G13G11G28G07G23G05G09G30G27G08
  -3951045.45046  -2991600.93642  24480778.1724   24480772.0044
        37.5004         17.2504
    -54034.198 5                  25850235.516
        33.500
 -15255751.77747 -11875712.16046  21160568.0164   21160563.4574
        46.5004         37.5004
 -26052550.59148 -20283316.21146  20724844.5084   20724840.0274
        51.0004         40.5004
  -3961225.53746  -2991125.44943  24339778.3674   24339771.9964
        37.5004         20.2504
 -13160125.20947 -10229096.68044  22891429.7974   22891425.3094
        43.5004         29.5004
 -16921162.09448 -13159406.34646  21708419.0784   21708416.0234
        49.0004         37.5004
 -22504473.39148 -17435834.75346  20671433.7504   20671431.6994
        50.0004         41.0004
  -8546570.72846  -6936408.92343  23974959.7034   23974957.3204
        39.5004         23.0004
 -14184781.12547 -11371777.76545  22602273.7974   22602270.6484
        44.7504         32.2504
 18  7 27  0  0 30.0000000  0 10G13G11G28G07G23G05G09G30G27G08
  -4055148.90446  -3072720.53543  24460967.9144   24460962.0314
        38.2504         18.2504
   -133805.761 5                  25835055.367
        35.000
 -15314416.29647 -11921424.76846  21149404.3834   21149400.2854
        46.2504         37.5004
 -26036039.67748 -20270450.58046  20727986.0394   20727981.7854
        51.7504         40.5004
  -3855679.52446  -2908881.76942  24359863.3594   24359856.2384
        37.5004         17.2504
 -13157607.39147 -10227134.76944  22891908.8364   22891904.3164
        43.0004         28.5004
 -16838632.29248 -13095097.41846  21724123.6644   21724121.2424
        49.7504         37.0004
 -22531105.12948 -17456586.75246  20666365.7664   20666363.2424
        50.0004         41.7504
  -8488709.64546  -6891322.35643  23985971.0704   23985967.1724
        38.2504         22.0004
 -14184505.26647 -11371562.78645  22602326.1254   22602323.4774
        43.2504         31.7504
 18  7 27  0  1  0.0000000  0 10G13G11G28G07G23G05G09G30G27G08
  -4159210.08146  -3153807.16843  24441165.5474   24441159.8714
        36.7504         18.5004
   -213602.861 5                  25819869.414
        34.250
 -15372656.64947 -11966806.85146  21138321.6094   21138317.3914
        46.0004         37.5004
 -26019299.95948 -20257406.64646  20731171.4304   20731166.7344
        51.2504         40.5004
  -3749973.94146  -2826513.81842  24379978.2734   24379970.8634
        36.7504         17.7504
 -13154524.57947 -10224732.58844  22892495.5944   22892490.3444
        43.0004         29.5004
 -16755758.97748 -13030520.82146  21739893.6174   21739891.8324
        49.0004         37.2504
 -22557490.49848 -17477146.78246  20661344.6414   20661342.1684
        48.7504         41.7504
  -8430337.96246  -6845837.95543  23997078.5164   23997076.3594
        38.5004         22.7504
 -14183638.12447 -11370887.07645  22602490.5784   22602488.3524
        43.5004         31.5004
 18  7 27  0  1 30.0000000  0 10G13G11G28G07G23G05G09G30G27G08
  -4263227.77946  -3234859.88843  24421371.1644   24421366.4804
        37.0004         18.2504
   -293423.313 5                  25804680.617
        35.000
 -15430473.10247 -12011858.62846  21127319.5234   21127314.9734
        46.2504         37.0004
 -26002331.66148 -20244184.59046  20734401.0314   20734395.9144
        51.5004         41.0004
  -3644111.09546  -2744023.26843  24400123.3674   24400115.7274
        37.2504         18.5004
 -13150878.13747 -10221891.19444  22893189.7424   22893184.3244
        43.7504         28.5004
 -16672544.29648 -12965678.23045  21755728.7504   21755727.1374
        48.0004         35.7504
 -22583630.06748 -17497515.27046  20656370.7424   20656368.3364
        50.2504         41.5004
  -8371458.30146  -6799957.71043  24008282.6564   24008280.3834
        38.0004         22.7504
 -14182180.07847 -11369750.91545  22602768.2584   22602765.5124
        43.7504         30.7504
 18  7 27  0  2  0.0000000  0 10G13G11G28G07G23G05G09G30G27G08
  -4367199.97846  -3315877.17243  24401586.6254   24401581.4574
        40.2504         19.0004
   -373264.414 5                  25789487.563
        35.000
 -15487864.43547 -12056579.13846  21116397.8134   21116393.1054
        45.7504         36.2504
 -25985134.77448 -20230784.42246  20737672.9384   20737668.2504
        51.7504         40.2504
  -3538092.55746  -2661411.41442  24420298.0784   24420291.6524
        38.7504         17.2504
 -13146668.56747 -10218611.02944  22893990.8984   22893984.9884
        42.5004         28.2504
 -16588989.47148 -12900570.59946  21771629.0554   21771627.2814
        48.0004         36.2504
 -22609523.39148 -17517691.88947  20651443.5704   20651441.4344
        49.2504         42.5004
  -8312072.32046  -6753682.93143  24019583.8284   24019580.7934
        39.0004         23.5004
 -14180130.63947 -11368153.92145  22603158.2194   22603155.5044
        42.5004         30.2504
 18  7 27  0  2 30.0000000  0 10G13G11G28G07G23G05G09G30G27G08
  -4471125.08046  -3396857.79543  24381810.7274   24381804.5514
        37.5004         18.2504
   -453123.442 5                  25774289.969
        35.750
 -15544830.52047 -12100968.29946  21105557.4534   21105552.4884
        45.2504         36.0004
 -25967709.79148 -20217206.51446  20740988.9534   20740983.8134
        51.0004         40.0004
  -3431920.69346  -2578680.06343  24440501.3834   24440494.8714
        36.2504         18.2504
 -13141896.75747 -10214892.72344  22894899.0164   22894893.2974
        45.0004         29.2504
 -16505096.35648 -12835199.33746  21787593.5314   21787591.8874
        48.2504         37.0004
 -22635170.57648 -17537676.71047  20646562.9224   20646560.6764
        49.5004         42.0004
  -8252182.38946  -6707015.46043  24030981.0314   24030977.7304
        39.5004         22.5004
 -14177489.69447 -11366096.01945  22603660.9064   22603658.1214
        43.7504         31.2504
 18  7 27  0  3  0.0000000  0 10G13G11G28G07G23G05G09G30G27G08
  -4575000.97946  -3477800.03743  24362044.0784   24362038.3794
        38.0004         19.5004
   -532997.271 6                  25759091.141
        37.000
 -15601370.17247 -12145025.16545  21094798.4144   21094793.2774
        45.0004         35.5004
 -25950056.03548 -20203450.33946  20744348.0474   20744343.4144
        51.2504         39.7504
  -3325596.60246  -2495830.15142  24460733.9304   24460727.7544
        37.2504         17.7504
 -13136562.67547 -10210736.30244  22895913.5004   22895908.8484
        43.0004         28.7504
 -16420866.05448 -12769565.33546  21803621.9064   21803620.2624
        48.5004         36.7504
 -22660571.08648 -17557469.31047  20641729.5864   20641726.7234
        50.0004         42.0004
  -8191789.95146  -6659956.41043  24042472.5704   24042470.3634
        38.7504         22.7504
 -14174256.72047 -11363576.80845  22604276.4454   22604273.6294
        45.5004         31.7504
 18  7 27  0  3 30.0000000  0 10G13G11G28G07G23G05G09G30G27G08
  -4678825.79246  -3558702.45443  24342286.2734   24342281.3594
        37.7504         19.0004
   -612883.119 6                  25743889.844
        36.750
 -15657482.39647 -12188748.97045  21084120.6254   21084114.7304
        45.2504         35.5004
 -25932173.41648 -20189515.81746  20747751.0004   20747746.0864
        51.5004         40.0004
  -3219122.00446  -2412862.90142  24480994.7344   24480990.3554
        37.7504         17.7504
 -13130667.45747 -10206142.64845  22897035.7114   22897030.4844
        43.0004         30.2504
 -16336299.89648 -12703669.63146  21819714.1724   21819712.9104
        48.5004         37.5004
 -22685724.57748 -17577069.42347  20636942.7894   20636940.0004
        49.7504         42.0004
  -8130896.87746  -6612507.26343  24054059.9534   24054057.8444
        39.0004         22.7504
 -14170431.08247 -11360595.77445  22605004.3984   22605001.7854
        43.7504         31.5004
 18  7 27  0  4  0.0000000  0 10G13G11G28G07G23G05G09G30G27G08
  -4782597.72646  -3639563.71543  24322539.9534   24322533.3594
        38.5004         18.5004
   -692778.428 6                  25728686.320
        36.750
 -15713166.93247 -12232139.51745  21073524.1414   21073518.4924
        46.5004         35.2504
 -25914062.29748 -20175403.24746  20751197.4384   20751192.3284
        50.7504         39.7504
  -3112498.92246  -2329779.96942  24501282.9924   24501278.9184
        37.5004         17.2504
 -13124212.20547 -10201112.56845  22898264.5704   22898259.2584
        43.7504         30.0004
 -16251399.80648 -12637513.71946  21835870.6954   21835869.2034
        49.0004         37.5004
 -22710631.22448 -17596477.19147  20632203.4614   20632200.8954
        50.2504         42.5004
  -8069505.63646  -6564669.94743  24065742.3594   24065740.5044
        37.5004         22.0004
 -14166012.95447 -11357153.05245  22605845.3754   22605842.7304
        44.7504         31.2504
 18  7 27  0  4 30.0000000  0 10G13G11G28G07G23G05G09G30G27G08
  -4886314.79246  -3720382.19843  24302801.9694   24302795.8094
        38.5004         18.2504
   -772680.454 5                  25713480.727
        35.750
 -15768423.21447 -12275196.35745  21063009.2344   21063003.6724
        46.5004         34.7504
 -25895722.67748 -20161112.63146  20754687.2664   20754681.7154
        51.0004         39.0004
  -3005729.16646  -2246582.75742  24521601.6094   24521596.0164
        36.7504         16.7504
 -13117197.26147 -10195646.38345  22899599.0704   22899594.1844
        44.5004         30.7504
 -16166167.07848 -12571098.59746  21852089.5314   21852088.1884
        48.2504         37.0004
 -22735290.64448 -17615692.31147  20627510.5704   20627508.1254
        50.5004         42.5004
  -8007618.02746  -6516445.81643  24077519.3364   24077517.1884
        38.7504         22.7504
 -14161002.22347 -11353248.57345  22606797.7894   22606796.4184
        44.0004         31.5004
 18  7 27  0  5  0.0000000  0 10G13G11G28G07G23G05G09G30G27G08
  -4989974.84046  -3801156.28443  24283076.4224   24283070.5744
        38.7504         19.2504
   -852586.271 5                  25698274.672
        35.750
 -15823250.51447 -12317918.92645  21052576.1024   21052570.2274
        47.7504         35.2504
 -25877154.14248 -20146643.63046  20758220.9454   20758215.3484
        50.5004         39.0004
  -2898814.51046  -2163272.61642  24541947.2734   24541940.7814
        37.2504         17.2504
 -13109623.43047 -10189744.70945  22901040.0634   22901035.6254
        44.5004         30.5004
 -16080603.18048 -12504425.43446  21868371.6484   21868370.2814
        49.0004         36.7504
 -22759702.60548 -17634714.61347  20622865.4224   20622863.1954
        50.7504         42.0004
  -7945236.03446  -6467836.50043  24089390.2194   24089387.3324
        39.5004         21.5004
 -14155398.66747 -11348882.15945  22607864.7584   22607862.7424
        43.2504         31.7504
 18  7 27  0  5 30.0000000  0 10G13G11G28G07G23G05G09G30G27G08
  -5093576.24146  -3881884.64443  24263361.0944   24263356.1484
        40.0004         18.2504
   -932492.956 5                  25683070.148
        34.750
 -15877647.96847 -12360306.55445  21042224.5164   21042218.8284
        47.5004         35.0004
 -25858356.47548 -20131996.08646  20761797.8444   20761792.6414
        51.0004         39.5004
  -2791756.64145  -2079850.90242  24562319.6484   24562312.9144
        35.5004         16.2504
 -13101491.43647 -10183408.08244  22902587.5944   22902583.2304
        44.2504         29.5004
 -15994709.69848 -12437495.45946  21884716.4064   21884715.1764
        48.0004         36.7504
 -22783866.88048 -17653543.91247  20618267.1254   20618264.1844
        50.7504         42.5004
  -7882361.66446  -6418843.51743  24101354.0944   24101352.3204
        40.0004         21.7504
 -14149201.88347 -11344053.48445  22609043.9384   22609041.6454
        43.2504         32.5004
 18  7 27  0  6  0.0000000  0 10G13G11G28G07G23G05G09G30G27G08
  -5197117.11246  -3962565.84843  24243658.4304   24243653.6914
        40.0004         19.7504
  -1012397.674 5                  25667863.641
        35.750
 -15931614.83948 -12402358.66445  21031954.5784   21031949.6254
        48.0004         35.0004
 -25839329.78648 -20117170.09046  20765418.2344   20765412.8284
        51.0004         39.2504
  -2684557.66845  -1996319.20742  24582721.1174   24582711.9264
        35.5004         16.2504
 -13092802.43347 -10176637.43045  22904241.3204   22904236.7074
        46.2504         30.0004
 -15908488.26647 -12370309.93046  21901124.2814   21901121.5784
        47.5004         36.2504
 -22807783.38448 -17672180.13747  20613716.1954   20613713.2464
        51.5004         42.2504
  -7818997.23146  -6369468.60143  24113413.2194   24113410.2734
        40.2504         22.7504
 -14142412.09047 -11338762.72945  22610335.4694   22610334.1524
        44.7504         32.7504
 18  7 27  0  6 30.0000000  0 10G13G11G28G07G23G05G09G30G27G08
  -5300595.49946  -4043198.33143  24223967.3524   24223962.1724
        40.2504         21.0004
  -1092298.022 6                  25652659.453
        36.000
 -15985151.03647 -12444075.18145  21021766.8984   21021761.9494
        47.2504         35.5004
 -25820074.15048 -20102165.69746  20769082.5164   20769077.6684
        50.5004         38.7504
  -2577219.46546  -1912679.03342  24603145.3984   24603139.6764
        36.7504         15.5004
 -13083557.09247 -10169433.25945  22906000.5084   22905995.6334
        47.2504         30.2504
 -15821940.55348 -12302870.17645  21917593.8914   21917590.6454
        48.0004         34.7504
 -22831452.03748 -17690623.23047  20609211.7504   20609209.4614
        51.2504         42.0004
  -7755144.77946  -6319713.46043  24125563.4614   24125560.4774
        39.2504         22.2504
 -14135029.16247 -11333009.77245  22611740.6644   22611739.3634
        44.2504         32.0004
 18  7 27  0  7  0.0000000  0 10G13G11G28G07G23G05G09G30G27G08
  -5404009.18446  -4123780.41443  24204288.9774   24204283.5274
        40.7504         20.5004
  -1172190.88146  -1924486.28852  25637457.0394   25637450.6174
        36.2504         17.7504
 -16038256.25647 -12485455.86745  21011661.4064   21011656.2344
        46.5004         35.2504
 -25800589.54548 -20086982.88546  20772790.4694   20772785.4304
        51.0004         39.0004
  -2469743.59845  -1828931.60542  24623597.5474   24623592.2384
        35.0004         15.5004
 -13073756.12747 -10161796.13145  22907865.4534   22907860.9844
        44.5004         30.0004
 -15735067.88748 -12235177.18745  21934125.5784   21934122.1254
        48.5004         35.0004
 -22854872.34648 -17708872.81147  20604755.2034   20604752.7774
        51.7504         42.7504
  -7690806.33646  -6269579.61143  24137806.7194   24137804.2304
        38.7504         22.2504
 -14127052.94147 -11326794.51845  22613258.9384   22613257.3834
        43.2504         33.5004
 18  7 27  0  7 30.0000000  0 10G13G11G28G07G23G05G09G30G27G08
  -5507355.62146  -4204310.06743  24184623.2034   24184616.1134
        40.7504         20.2504
  -1252072.86746  -1986732.01842  25622255.8524   25622248.9384
        36.0004         15.5004
 -16090928.44547 -12526499.12245  21001638.4924   21001633.3364
        46.0004         35.5004
 -25780875.12748 -20071621.01646  20776541.8914   20776537.6134
        50.2504         39.2504
  -2362131.29545  -1745077.91942  24644074.2114   24644069.4454
        35.5004         17.2504
 -13063400.15347 -10153726.55645  22909836.6254   22909831.8484
        45.2504         30.5004
 -15647871.15448 -12167231.66445  21950718.6174   21950714.8754
        49.0004         35.0004
 -22878043.45648 -17726928.22147  20600345.1484   20600343.0124
        50.0004         42.0004
  -7625983.18246  -6219068.06243  24150141.7344   24150139.0044
        38.0004         22.7504
 -14118482.88047 -11320116.57045  22614889.7664   22614887.6254
        43.7504         33.0004
 18  7 27  0  8  0.0000000  0 10G13G11G28G07G23G05G09G30G27G08
  -5610633.63046  -4284786.44843  24164969.6254   24164963.4384
        40.5004         19.5004
  -1331941.82745  -2048967.70642  25607057.5554   25607049.9224
        34.0004         15.5004
 -16143168.00447 -12567205.26446  20991697.4144   20991692.2584
        45.5004         36.0004
 -25760931.62448 -20056080.63446  20780337.1024   20780332.4884
        50.7504         39.7504
  -2254384.84145  -1661119.54842  24664580.1804   24664572.7664
        35.0004         16.2504
 -13052490.69047 -10145225.67545  22911912.3204   22911908.4104
        46.0004         30.5004
 -15560352.67048 -12099035.42745  21967372.3594   21967368.8204
        49.2504         34.7504
 -22900965.82848 -17744789.79947  20595983.5554   20595981.4454
        50.7504         42.0004
  -7560678.14646  -6168181.05343  24162569.7504   24162566.9454
        37.7504         22.2504
 -14109319.43947 -11312976.22345  22616632.7344   22616631.4414
        42.5004         32.2504
 18  7 27  0  8 30.0000000  0 10G13G11G28G07G23G05G09G30G27G08
  -5713841.46146  -4365208.14743  24145329.7274   24145323.1134
        40.5004         19.0004
  -1411794.39245  -2111190.40542  25591861.9064   25591855.0944
        34.2504         14.7504
 -16194974.36147 -12607573.86646  20981839.5784   20981834.1214
        46.5004         36.2504
 -25740758.82148 -20040361.58046  20784175.8754   20784171.5164
        50.5004         39.5004
  -2146506.55245  -1577058.55142  24685106.9844   24685100.7274
        34.2504         16.2504
 -13041028.48747 -10136294.11045  22914093.3834   22914089.4104
        46.0004         30.0004
 -15472514.11248 -12030589.80345  21984086.8754   21984084.7344
        48.0004         34.7504
 -22923639.37748 -17762457.49546  20591668.8134   20591666.6174
        50.0004         41.7504
  -7494893.65046  -6116920.40644  24175088.0784   24175085.3054
        40.0004         24.5004
 -14099562.52247 -11305373.41445  22618489.3984   22618487.8524
        43.5004         32.7504
 18  7 27  0  9  0.0000000  0 10G13G11G28G07G23G05G09G30G27G08
  -5816976.52246  -4445573.13643  24125703.1254   24125697.1844
        40.2504         18.5004
  -1491627.39945  -2173397.90042  25576670.7344   25576663.8834
        34.5004         17.2504
 -16246346.80147 -12647604.33646  20972063.6884   20972057.9454
        46.2504         36.7504
 -25720356.21448 -20024463.43946  20788058.3834   20788054.2894
        50.7504         40.2504
  -2038497.84246  -1492895.97942  24705661.3204   24705653.8794
        36.0004         15.5004
 -13029014.05147 -10126932.21445  22916379.3444   22916375.2234
        47.5004         30.7504
 -15384356.50547 -11961895.55845  22000862.7894   22000860.6644
        47.5004         35.0004
 -22946063.23148 -17779930.62646  20587401.6094   20587399.4064
        49.0004         41.0004
  -7428631.17546  -6065287.31044  24187697.5314   24187695.4574
        39.0004         24.5004
 -14089211.95147 -11297308.02445  22620459.3444   22620457.5314
        45.0004         33.2504
 18  7 27  0  9 30.0000000  0 10G13G11G28G07G23G05G09G30G27G08
  -5920036.95846  -4525879.92643  24106091.6254   24106086.1134
        40.7504         19.2504
  -1571438.80546  -2235588.65842  25561483.3754   25561476.5904
        36.0004         17.2504
 -16297285.04648 -12687296.48046  20962370.3674   20962364.9844
        48.2504         37.0004
 -25699724.14948 -20008386.52746  20791984.4694   20791980.5164
        50.0004         40.2504
  -1930360.36646  -1408632.96742  24726238.9614   24726231.2774
        36.0004         14.7504
 -13016448.86947 -10117141.15245  22918770.3754   22918766.1484
        46.5004         31.2504
 -15295881.89847 -11892954.32245  22017699.2274   22017696.9104
        47.5004         35.7504
 -22968237.66348 -17797209.40347  20583181.8674   20583179.6024
        50.2504         42.0004
  -7361893.31446  -6013283.79043  24200397.4844   24200395.0664
        39.0004         23.2504
 -14078268.21747 -11288780.43245  22622542.0164   22622540.3794
        45.0004         33.7504
 18  7 27  0 10  0.0000000  0 10G13G11G28G07G23G05G09G30G27G08
  -6023020.74346  -4606127.03243  24086494.3524   24086488.8524
        40.2504         19.5004
  -1651225.77445  -2297760.32543  25546298.8674   25546293.6914
        35.5004         18.5004
 -16347788.55947 -12726649.86546  20952760.1254   20952754.6214
        47.5004         38.0004
 -25678862.50148 -19992130.70446  20795954.4384   20795950.1054
        50.5004         39.5004
  -1822096.19745  -1324271.25242  24746841.2814   24746833.4844
        34.5004         14.7504
 -13003333.96747 -10106921.74545  22921266.7584   22921261.8364
        44.2504         30.5004
 -15207091.91447 -11823767.32845  22034595.3524   22034593.7894
        47.2504         35.2504
 -22990162.42948 -17814293.63347  20579010.0004   20579007.7194
        50.2504         42.0004
  -7294682.20946  -5960911.54444  24213187.2504   24213184.3954
        39.2504         26.5004
 -14066731.44647 -11279790.73945  22624737.0784   22624735.6484
        42.5004         33.0004
 18  7 27  0 10 30.0000000  0 10G13G11G28G07G23G05G09G30G27G08
  -6125925.74446  -4686312.74243  24066912.2974   24066907.2544
        40.5004         20.2504
  -1730984.83345  -2359910.23443  25531123.5394   25531116.6884
        35.5004         18.5004
 -16397856.62347 -12765663.94246  20943232.2424   20943227.1414
        47.5004         37.5004
 -25657770.75248 -19975695.57646  20799967.8284   20799963.4734
        51.0004         39.2504
  -1713706.80545  -1239812.04842  24767466.3594   24767458.8054
        35.5004         17.2504
 -12989670.00447 -10096274.49645  22923866.7344   22923861.9694
        44.0004         31.7504
 -15117987.75947 -11754335.51845  22051551.0944   22051549.7544
        46.2504         35.5004
 -23011836.88348 -17831182.81546  20574885.6564   20574882.9574
        50.2504         41.7504
  -7226999.81646  -5908172.00844  24226066.6484   24226063.8794
        39.2504         25.0004
 -14054601.29346 -11270338.66845  22627045.4454   22627044.0904
        41.0004         33.2504
 18  7 27  0 11  0.0000000  0 10G13G11G28G07G23G05G09G30G27G08
  -6228750.14446  -4766435.63743  24047344.7894   24047340.0514
        40.2504         20.0004
  -1810713.46046  -2422036.46342  25515950.3054   25515944.4844
        36.0004         16.2504
 -16447489.00347 -12804338.52046  20933787.5084   20933782.5394
        45.7504         37.5004
 -25636449.15348 -19959081.35046  20804025.4304   20804020.8914
        50.7504         38.7504
  -1605194.63846  -1155257.02042  24788115.9844   24788107.9344
        37.0004         16.7504
 -12975458.33347 -10085200.44245  22926571.0554   22926566.6994
        45.2504         30.5004
 -15028571.42247 -11684660.45845  22068566.4454   22068565.4774
        46.2504         34.7504
 -23033261.15248 -17847877.04947  20570808.4144   20570806.0864
        50.0004         42.0004
  -7158848.57046  -5855067.15043  24239035.3984   24239032.5044
        38.7504         22.7504
 -14041877.90547 -11260424.32745  22629467.1094   22629465.9264
        43.5004         34.0004
 18  7 27  0 11 30.0000000  0 10G13G11G28G07G23G05G09G30G27G08
  -6331491.91946  -4846494.14243  24027794.0784   24027788.0234
        39.7504         20.0004
  -1890408.80146  -2484136.71343  25500785.4064   25500779.2774
        36.5004         19.0004
 -16496685.45348 -12842673.42346  20924425.6414   20924420.7934
        48.0004         37.2504
 -25614897.67948 -19942287.98646  20808126.8054   20808121.2424
        50.7504         38.0004
  -1496561.46646  -1070607.77442  24808787.6954   24808780.4844
        36.5004         15.5004
 -12960699.78347 -10073700.27345  22929379.7894   22929375.2854
        46.2504         31.2504
 -14938844.52347 -11614743.39945  22085641.1804   22085639.3674
        47.0004         34.5004
 -23054434.95948 -17864376.10446  20566779.1804   20566776.7544
        50.7504         41.7504
  -7090230.70346  -5801598.71043  24252093.6254   24252090.2544
        38.0004         23.5004
 -14028561.95147 -11250048.25945  22632000.5314   22631999.6094
        44.5004         34.0004
 18  7 27  0 12  0.0000000  0 10G13G11G28G07G23G05G09G30G27G08
  -6434148.57146  -4926486.30243  24008257.5234   24008253.2304
        38.7504         19.0004
  -1970067.68745  -2546208.59442  25485626.0164   25485621.1174
        34.7504         16.2504
 -16545444.83248 -12880667.73346  20915147.2034   20915142.2384
        48.0004         37.5004
 -25593115.90348 -19925315.15646  20812271.1804   20812265.7544
        51.5004         38.5004
  -1387808.45746   -985865.17242  24829483.3444   24829475.4184
        36.7504         15.5004
 -12945395.56947 -10061774.91345  22932292.0394   22932287.0634
        46.5004         31.5004
 -14848808.37747 -11544585.36845  22102773.9924   22102773.6804
        46.0004         34.5004
 -23075357.73548 -17880679.55346  20562798.0164   20562795.6914
        50.5004         41.7504
  -7021148.21146  -5747768.21644  24265238.6024   24265236.0634
        39.0004         24.0004
 -14014652.92647 -11239210.07345  22634647.9144   22634646.1884
        46.5004         34.0004
 18  7 27  0 12 30.0000000  0 10G13G11G28G07G23G05G09G30G27G08
  -6536718.65446  -5006411.03943  23988740.3204   23988735.7234
        39.2504         21.2504
  -2049687.38245  -2608249.88042  25470475.0784   25470468.7234
        33.0004         15.5004
 -16593767.66948 -12918321.89346  20905951.8054   20905946.3284
        49.2504         36.7504
 -25571103.96448 -19908162.98446  20816459.7974   20816454.4574
        50.7504         37.2504
  -1278938.22546   -901031.14642  24850200.4844   24850193.3594
        36.2504         16.7504
 -12929547.12147 -10049425.47045  22935307.2974   22935303.3014
        47.0004         32.0004
 -14758465.00947 -11474187.93645  22119966.1644   22119964.4614
        46.5004         34.2504
 -23096029.60048 -17896787.49746  20558863.8984   20558862.0514
        51.5004         41.7504
  -6951603.72346  -5693577.73343  24278473.0314   24278469.6684
        39.2504         22.0004
 -14000151.77447 -11227910.44145  22637406.5314   22637405.7154
        45.2504         34.5004
 18  7 27  0 13  0.0000000  0 10G13G11G28G07G23G05G09G30G27G08
  -6639199.52246  -5086266.21843  23969238.5554   23969234.3984
        38.7504         19.5004
  -2129264.89945  -2670258.33942  25455332.0634   25455325.6374
        34.0004         15.5004
 -16641652.83248 -12955635.00346  20896839.2814   20896833.9734
        49.2504         37.5004
 -25548861.56148 -19890831.23246  20820692.3054   20820686.8204
        51.0004         37.2504
  -1169952.28046   -816107.10743  24870940.5004   24870932.8834
        37.7504         18.5004
 -12913155.30847 -10036652.61845  22938427.1564   22938422.1414
        46.2504         31.7504
 -14667815.90447 -11403552.27245  22137216.6884   22137214.3014
        46.0004         34.0004
 -23116450.08848 -17912699.55646  20554977.9224   20554975.9694
        51.0004         41.7504
  -6881599.17946  -5639028.73543  24291794.1804   24291791.8794
        39.0004         22.5004
 -13985058.20247 -11216149.22445  22640278.8754   22640277.6414
        44.7504         34.5004
 18  7 27  0 13 30.0000000  0 10G13G11G28G07G23G05G09G30G27G08
  -6741589.37846  -5166050.50443  23949755.6884   23949748.9384
        39.7504         18.5004
  -2208797.21546  -2732231.55742  25440197.9144   25440190.9924
        37.2504         16.7504
 -16689100.28848 -12992607.03746  20887810.6254   20887804.7624
        49.5004         37.5004
 -25526388.57948 -19873319.80946  20824968.8594   20824963.1604
        50.5004         37.5004
  -1060852.56946   -731094.32643  24891700.6024   24891693.8014
        37.2504         18.2504
 -12896221.13647 -10023457.17445  22941648.9534   22941645.0204
        44.0004         31.2504
 -14576862.56047 -11332679.53545  22154524.5394   22154521.4774
        47.0004         34.2504
 -23136618.82248 -17928415.44847  20551140.0784   20551138.2154
        50.7504         42.5004
  -6811136.77246  -5584122.98243  24305203.3674   24305199.2114
        37.2504         21.5004
 -13969372.42347 -11203926.53345  22643264.2814   22643262.9734
        42.5004         33.5004
 18  7 27  0 14  0.0000000  0 10G13G11G28G07G23G05G09G30G27G08
  -6843886.12446  -5245762.24943  23930288.2584   23930282.8634
        40.0004         21.5004
  -2288281.26946  -2794167.19842  25425072.1484   25425065.6024
        36.2504         15.5004
 -16736109.29948 -13029237.42946  20878864.6024   20878859.1024
        49.5004         36.0004
 -25503684.91048 -19855628.63546  20829289.3754   20829283.7234
        50.5004         38.2504
   -951640.44746   -645993.98442  24912484.1724   24912475.5084
        37.2504         17.7504
 -12878745.87547 -10009840.12344  22944974.6484   22944969.7154
        42.0004         29.5004
 -14485606.75647 -11261571.12045  22171889.7274   22171886.8404
        46.7504         33.5004
 -23156535.60748 -17943935.01347  20547350.1334   20547348.0984
        51.5004         42.5004
  -6740218.86046  -5528862.30943  24318697.8914   24318694.4344
        38.5004         21.5004
 -13953094.65647 -11191242.54845  22646361.0314   22646359.8874
        43.2504         33.5004
 18  7 27  0 14 30.0000000  0 10G13G11G28G07G23G05G09G30G27G08
  -6946088.02446  -5325400.09143  23910840.3204   23910834.3364
        40.5004         19.7504
  -2367715.21945  -2856063.79742  25409955.8834   25409949.6804
        35.7504         15.5004
 -16782680.48348 -13065526.66246  20870002.1724   20869996.7304
        49.5004         36.5004
 -25480751.06748 -19837758.10546  20833653.4614   20833648.4734
        50.7504         38.0004
   -842318.77646   -560808.29142  24933287.4064   24933279.7704
        37.7504         17.2504
 -12860731.15547  -9995802.69545  22948403.2274   22948398.5784
        46.2504         31.0004
 -14394050.64847 -11190228.70245  22189312.6334   22189309.8594
        47.2504         33.5004
 -23176200.71748 -17959258.47847  20543607.9534   20543606.0394
        51.5004         42.0004
  -6668848.29546  -5473248.92243  24332279.7734   24332275.8054
        37.7504         21.5004
 -13936226.04047 -11178098.17745  22649571.4614   22649570.3634
        44.2504         34.0004
 18  7 27  0 15  0.0000000  0 10G13G11G28G07G23G05G09G30G27G08
  -7048192.45346  -5404961.95843  23891410.7344   23891404.9614
        40.0004         21.0004
  -2447095.50345  -2917918.60342  25394851.7814   25394844.2584
        35.5004         16.7504
 -16828812.81548 -13101473.93146  20861223.6024   20861218.2774
        48.7504         36.7504
 -25457586.60448 -19819707.87846  20838061.3594   20838056.6374
        50.5004         38.7504
   -732888.71546   -475538.07942  24954111.1024   24954103.4924
        37.0004         17.7504
 -12842177.62147  -9981345.37345  22951934.2034   22951928.9304
        45.0004         31.5004
 -14302195.43747 -11118653.21545  22206791.8524   22206789.4454
        47.0004         33.2504
 -23195613.29448 -17974385.15547  20539913.9694   20539911.5554
        51.0004         42.2504
  -6597026.81446  -5417284.13043  24345946.5474   24345942.1604
        36.7504         20.5004
 -13918766.31347 -11164493.19945  22652894.3204   22652892.7814
        43.0004         32.5004
 18  7 27  0 15 30.0000000  0 10G13G11G28G07G23G05G09G30G27G08
  -7150197.22346  -5484446.15443  23871999.2274   23871994.6414
        39.2504         19.5004
  -2526418.55446  -2979728.73942  25379756.0234   25379749.9654
        37.5004         16.2504
 -16874505.66548 -13137078.76046  20852528.6484   20852523.1724
        48.5004         36.2504
 -25434190.57448 -19801477.20246  20842514.0864   20842509.1484
        51.0004         39.2504
   -623352.20446   -390184.95142  24974954.5474   24974947.0474
        38.0004         17.2504
 -12823086.78147  -9966469.39745  22955566.5314   22955561.6484
        47.0004         31.7504
 -14210042.76847 -11046845.94045  22224328.0004   22224326.3244
        47.7504         35.0004
 -23214773.12448 -17989314.88047  20536268.1884   20536265.6414
        52.0004         42.0004
  -6524756.83646  -5360969.87943  24359698.1334   24359695.4924
        38.2504         22.0004
 -13900715.86747 -11150427.90945  22656328.9534   22656327.1914
        45.0004         33.5004
 18  7 27  0 16  0.0000000  0 10G13G11G28G07G23G05G09G30G27G08
  -7252099.96146  -5563850.86343  23852608.1484   23852602.8594
        40.0004         22.0004
  -2605681.31345  -3041491.93842  25364672.0164   25364666.3874
        35.7504         16.2504
 -16919758.37248 -13172340.62746  20843917.2344   20843912.0124
        48.2504         36.0004
 -25410562.93248 -19783066.06346  20847009.9844   20847005.7074
        50.7504         39.2504
   -513710.60446   -304749.94542  24995819.3674   24995811.0234
        37.5004         17.7504
 -12803459.50647  -9951175.43145  22959301.5784   22959296.6564
        46.0004         31.0004
 -14117593.87047 -10974807.86645  22241920.5164   22241918.7504
        47.2504         34.7504
 -23233679.40848 -18004047.04447  20532670.2034   20532667.4264
        52.0004         42.5004
  -6452040.00446  -5304307.47743  24373536.2734   24373533.1564
        38.0004         21.7504
 -13882074.28747 -11135901.99345  22659875.9924   22659874.8054
        45.0004         33.5004
 18  7 27  0 16 30.0000000  0 10G13G11G28G07G23G05G09G30G27G08
  -7353898.95146  -5643174.69143  23833235.3984   23833231.2664
        39.5004         21.2504
  -2684881.36946  -3103206.19042  25349601.4774   25349595.3284
        36.2504         17.2504
 -16964571.16948 -13207259.69146  20835389.7734   20835384.4304
        48.5004         36.2504
 -25386704.11748 -19764474.77746  20851550.1174   20851545.9264
        51.0004         39.2504
   -403966.24246   -219234.78842  25016702.0394   25016694.5984
        38.0004         16.7504
 -12783297.40347  -9935464.70645  22963137.9384   22963133.3594
        45.2504         30.7504
 -14024851.03047 -10902540.73245  22259568.8444   22259566.9384
        47.5004         35.0004
 -23252332.43048 -18018581.86247  20529120.5084   20529118.6294
        51.5004         42.5004
  -6378879.43446  -5247299.25743  24387458.4224   24387455.2504
        39.0004         22.7504
 -13862842.95647 -11120916.54845  22663535.5944   22663533.9964
        45.0004         33.7504
 18  7 27  0 17  0.0000000  0 10G13G11G28G07G23G05G09G30G27G08
  -7455592.31046  -5722416.24743  23813884.3524   23813879.3984
        40.2504         21.5004
  -2764015.66946  -3164869.34542  25334542.8134   25334536.8204
        36.0004         17.2504
 -17008943.41547 -13241835.46446  20826946.1644   20826940.7734
        47.5004         36.5004
 -25362613.87148 -19745703.16146  20856134.4694   20856130.1484
        51.7504         39.7504
   -294121.10146   -133641.19942  25037605.9384   25037597.6764
        37.0004         17.7504
 -12762601.72947  -9919338.21345  22967076.2034   22967071.6684
        45.5004         30.5004
 -13931816.02947 -10830045.93945  22277273.3524   22277270.2774
        47.7504         34.5004
 -23270731.96348 -18032919.15947  20525619.4224   20525616.8754
        51.5004         42.2504
  -6305277.51246  -5189947.11443  24401465.1094   24401461.3714
        39.5004         22.7504
 -13843022.29347 -11105471.86745  22667307.5474   22667305.7154
        45.5004         34.0004
 18  7 27  0 17 30.0000000  0 10G13G11G28G07G23G05G09G30G27G08
  -7557177.99446  -5801573.91243  23794554.5784   23794548.1134
        40.5004         21.2504
  -2843081.64845  -3226479.16842  25319497.8444   25319490.4184
        34.7504         17.2504
 -17052876.38847 -13276068.93946  20818585.3984   20818580.0904
        47.0004         37.2504
 -25338292.57948 -19726751.51346  20860762.5004   20860758.6024
        51.5004         39.2504
   -184177.45646    -47970.84742  25058526.4534   25058519.3164
        36.5004         17.2504
 -12741374.49747  -9902797.53245  22971115.6804   22971111.4224
        45.5004         31.0004
 -13838490.93147 -10757325.08245  22295032.1954   22295029.1414
        47.5004         34.5004
 -23288878.07848 -18047058.98647  20522166.5164   20522164.0354
        51.5004         42.5004
  -6231236.80946  -5132253.07543  24415554.5704   24415551.1724
        39.0004         22.2504
 -13822613.19847 -11089568.67445  22671191.0474   22671189.9064
        46.7504         33.5004
 18  7 27  0 18  0.0000000  0 10G13G11G28G07G23G05G09G30G27G08
  -7658653.29746  -5880645.55843  23775243.6644   23775237.9924
        40.0004         21.2504
  -2922075.81745  -3288033.04642  25304465.4454   25304458.9494
        34.0004         16.7504
 -17096368.36348 -13309958.78346  20810310.3754   20810303.9884
        48.2504         36.2504
 -25313739.32448 -19707619.10946  20865435.1484   20865430.5314
        51.0004         39.2504
    -74136.56346     37775.34342  25079467.6644   25079459.8094
        36.5004         15.5004
 -12719616.26147  -9885843.06045  22975256.3524   22975251.6764
        46.2504         30.0004
 -13744876.90947 -10684379.08745  22312846.0234   22312843.4494
        47.0004         33.7504
 -23306769.92548 -18061000.68946  20518761.6564   20518759.0704
        51.2504         41.7504
  -6156759.35846  -5074218.67843  24429727.4144   24429724.7504
        38.5004         22.5004
 -13801615.17947 -11073206.58845  22675187.0944   22675185.2814
        46.2504         33.0004
 18  7 27  0 18 30.0000000  0 10G13G11G28G07G23G05G09G30G27G08
  -7760016.32446  -5959629.73943  23755954.8364   23755949.0904
        40.5004         21.5004
  -3000995.71445  -3349529.08842  25289446.3284   25289440.9384
        35.2504         17.7504
 -17139419.69948 -13343505.27346  20802117.8754   20802112.2734
        48.2504         36.7504
 -25288954.36848 -19688306.16646  20870151.3054   20870146.6684
        51.0004         39.2504
     35999.54546    123595.72442  25100425.0864   25100417.5594
        36.5004         14.7504
 -12697328.69047  -9868476.12045  22979497.1884   22979492.9694
        46.5004         30.0004
 -13650975.82147 -10611209.40945  22330715.0474   22330711.8674
        47.0004         33.5004
 -23324407.34048 -18074744.13547  20515405.8134   20515402.9734
        51.7504         42.0004
  -6081847.62446  -5015845.94743  24443981.6954   24443979.1724
        37.7504         22.2504
 -13780029.10447 -11056386.25445  22679295.0474   22679292.6254
        47.0004         33.0004
 18  7 27  0 19  0.0000000  0 10G13G11G28G07G23G05G09G30G27G08
  -7861264.64446  -6038524.50643  23736687.7894   23736681.6174
        40.0004         21.2504
  -3079837.68845  -3410964.41242  25274444.9534   25274437.3524
        35.2504         16.7504
 -17182030.04447 -13376708.12646  20794008.9774   20794003.3134
        47.5004         36.7504
 -25263937.54448 -19668812.54346  20874911.8364   20874907.3674
        49.0004         39.2504
    146229.31545    209489.09442  25121401.4064   25121394.6054
        34.0004         12.5004
 -12674513.07747  -9850697.71645  22983839.1174   22983834.9454
        43.0004         30.7504
 -13556789.22347 -10537817.25845  22348637.5944   22348635.3094
        46.5004         33.5004
 -23341789.88948 -18088288.98447  20512098.0864   20512095.3284
        52.2504         42.5004
  -6006503.70446  -4957136.42343  24458319.0234   24458316.9144
        38.7504         21.7504
 -13757855.49447 -11039108.11945  22683514.1804   22683512.4224
        44.5004         32.7504
 18  7 27  0 19 30.0000000  0 10G13G11G28G07G23G05G09G30G27G08
  -7962396.13246  -6117328.25343  23717443.3364   23717436.8404
        39.5004         21.5004
  -3158599.49646  -3472337.26542  25259455.5394   25259449.8674
        36.0004         16.7504
 -17224199.42247 -13409567.38146  20785984.0394   20785978.6024
        47.5004         36.7504
 -25238688.61648 -19649138.04446  20879716.6804   20879712.4184
        51.2504         38.5004
    256550.469 5                  25142393.742
        30.750
 -12651171.09447  -9832509.16645  22988280.5004   22988276.0084
        45.7504         30.7504
 -13462319.33747 -10464204.37545  22366614.5704   22366612.3014
        46.2504         33.5004
 -23358917.63848 -18101635.27647  20508838.5864   20508836.0204
        52.5004         42.7504
  -5930730.53846  -4898092.44143  24472738.7274   24472736.0314
        38.7504         22.5004
 -13735095.12147 -11021372.75745  22687845.6174   22687844.0004
        45.7504         33.0004
 18  7 27  0 20  0.0000000  0 10G13G11G28G07G23G05G09G30G27G08
  -8063406.31347  -6196037.47343  23698221.6174   23698216.1054
        42.0004         22.0004
  -3237275.34345  -3533643.07742  25244484.9304   25244478.5394
        34.5004         16.7504
 -17265924.92647 -13442080.75546  20778044.3674   20778038.5664
        47.7504         36.7504
 -25213204.79448 -19629280.52046  20884565.9924   20884561.2664
        50.5004         38.5004
                                  25163406.102
        26.250
 -12627301.74647  -9813909.68145  22992823.6414   22992818.6094
        46.5004         31.2504
 -13367565.36247 -10390370.11645  22384646.1254   22384644.5864
        47.0004         34.2504
 -23375787.75148 -18114780.81347  20505628.3984   20505625.7544
        52.0004         42.7504
  -5854527.95246  -4838713.80843  24487239.6884   24487236.1254
        39.7504         22.7504
 -13711745.96447 -11003178.60445  22692288.9694   22692287.1294
        47.0004         33.5004
 18  7 27  0 20 30.0000000  0  9G13G11G28G07G05G09G30G27G08
  -8164297.46346  -6274653.90743  23679022.9774   23679017.1994
        40.7504         22.5004
  -3315866.74145  -3594883.12543  25229529.3054   25229523.1524
        35.7504         19.0004
 -17307210.68148 -13474251.46846  20770187.5164   20770182.1454
        48.0004         37.0004
 -25187490.46648 -19609243.38046  20889458.9844   20889454.4104
        50.7504         38.2504
 -12602910.82947  -9794903.77445  22997464.2194   22997460.1684
        45.7504         30.0004
 -13272533.38848 -10316319.23345  22402730.3524   22402728.2624
        48.0004         33.7504
 -23392404.24848 -18127728.71547  20502466.3364   20502463.3674
        52.5004         42.2504
  -5777902.82146  -4779005.92943  24501819.3674   24501817.8364
        37.7504         21.0004
 -13687813.18547 -10984529.69245  22696843.1884   22696841.3134
        46.5004         33.2504
 18  7 27  0 21  0.0000000  0  9G13G11G28G07G05G09G30G27G08
  -8265065.90346  -6353174.75943  23659846.7664   23659841.4924
        40.7504         22.7504
  -3394369.51246  -3656054.09242  25214590.4064   25214584.6134
        36.0004         16.7504
 -17348055.40648 -13506078.52146  20762415.4454   20762409.8244
        48.5004         37.7504
 -25161544.69748 -19589025.91346  20894396.7194   20894391.6024
        50.0004         37.7504
 -12577998.16847  -9775491.32045  23002205.0164   23002200.3134
        45.7504         31.0004
 -13177223.91148 -10242052.11745  22420867.0634   22420865.3054
        48.0004         35.0004
 -23408765.58148 -18140477.80647  20499352.7734   20499349.8164
        52.2504         42.7504
  -5700856.18646  -4718969.58543  24516481.4224   24516478.3484
        37.0004         19.5004
 -13663295.87147 -10965425.26245  22701508.5004   22701506.2154
        45.5004         33.2504
 18  7 27  0 21 30.0000000  0  9G13G11G28G07G05G09G30G27G08
  -8365708.65746  -6431597.67843  23640695.5554   23640690.2934
        39.2504         22.7504
  -3472779.08545  -3717152.52042  25199669.7034   25199661.7854
        34.5004         16.2504
 -17388458.21348 -13537561.21646  20754727.0314   20754721.7234
        48.5004         38.0004
 -25135365.79048 -19568626.76046  20899378.5554   20899373.4804
        48.5004         38.2504
 -12552565.10747  -9755673.35945  23007045.1564   23007039.9184
        46.2504         30.0004
 -13081637.79647 -10167569.44045  22439056.4924   22439054.2814
        47.2504         33.5004
 -23424870.48848 -18153027.07247  20496287.9924   20496284.9384
        52.2504         42.5004
  -5623389.67246  -4658606.07443  24531224.8204   24531220.0164
        38.0004         20.2504
 -13638194.01347 -10945865.36845  22706285.5474   22706282.9694
        43.7504         33.0004
 18  7 27  0 22  0.0000000  0 10G13G11G17G28G07G05G09G30G27G08
  -8466225.93146  -6509922.81143  23621567.5864   23621562.1914
        39.0004         21.5004
  -3551096.16145  -3778178.81842  25184765.7424   25184759.4454
        34.0004         16.2504
    445651.52915                  25460164.656
        34.500
 -17428421.62848 -13568701.53546  20747122.5394   20747116.9844
        48.7504         38.0004
 -25108956.56948 -19548048.13646  20904403.6484   20904398.6764
        50.5004         38.7504
 -12526615.40547  -9735452.82045  23011982.6334   23011978.0394
        46.2504         30.5004
 -12985779.50448 -10092874.66745  22457297.5864   22457295.1484
        48.0004         33.0004
 -23440721.41748 -18165378.43647  20493271.4064   20493269.0704
        51.7504         42.0004
  -5545508.47746  -4597919.45743  24546043.8284   24546040.7584
        37.7504         21.0004
 -13612510.84347 -10925852.49845  22711172.8914   22711170.6804
        44.2504         32.5004
 18  7 27  0 22 30.0000000  0 10G13G11G17G28G07G05G09G30G27G08
  -8566611.02046  -6588144.95443  23602464.5634   23602458.6684
        39.7504         21.7504
  -3629312.65446  -3839126.72142  25169882.0084   25169875.5394
        36.0004         16.2504
    342192.880 5                  25440477.961
        35.500
 -17467940.89548 -13599495.76546  20739602.1484   20739596.4264
        49.2504         38.5004
 -25082312.01348 -19527286.12946  20909474.2584   20909469.1334
        50.7504         39.0004
 -12500146.07147  -9714827.38345  23017019.7974   23017015.6954
        45.5004         30.2504
 -12889646.18148 -10017965.58245  22475591.5164   22475589.1724
        48.0004         33.2504
 -23456313.28048 -18177527.94047  20490304.3984   20490302.1334
        52.0004         42.2504
  -5467210.21746  -4536907.82043  24560943.8204   24560940.5984
        37.7504         20.2504
 -13586242.52947 -10905383.67445  22716170.9384   22716169.4844
        46.0004         32.0004
 18  7 27  0 23  0.0000000  0 10G13G11G17G28G07G05G09G30G27G08
  -8666863.63946  -6666263.87543  23583387.0634   23583381.4574
        39.5004         21.2504
  -3707427.78046  -3899995.61942  25155017.2344   25155010.6054
        36.5004         15.5004
    238614.658 5                  25420767.281
        34.500
 -17507018.16648 -13629945.58446  20732165.6804   20732159.8874
        49.0004         38.0004
 -25055434.20548 -19506342.37646  20914588.9614   20914583.9534
        51.0004         39.2504
 -12473160.99047  -9693800.04745  23022154.7504   23022150.4774
        46.5004         31.5004
 -12793241.84647  -9942845.32045  22493936.6094   22493933.9384
        47.5004         33.7504
 -23471648.03248 -18189477.09547  20487386.1094   20487384.1804
        51.5004         42.2504
  -5388499.83846  -4475575.10543  24575922.5164   24575918.4264
        37.2504         19.2504
 -13559391.85247 -10884461.06145  22721280.5394   22721278.6524
        45.7504         32.5004
 18  7 27  0 23 30.0000000  0 10G13G11G17G28G07G05G09G30G27G08
  -8766981.50346  -6744277.77743  23564335.7974   23564329.7304
        41.5004         21.0004
  -3785438.32246  -3960783.01142  25140172.2114   25140165.5354
        36.2504         16.2504
    134919.73145    122200.42152  25401035.3364   25401030.6484
        34.5004         16.7504
 -17545652.97148 -13660050.62346  20724813.9384   20724808.0474
        49.0004         38.5004
 -25028322.79148 -19485216.58946  20919748.0554   20919743.2154
        50.7504         39.0004
 -12445661.50647  -9672371.88545  23027388.1414   23027383.4104
        46.0004         31.7504
 -12696568.06847  -9867515.11145  22512332.7114   22512331.0234
        47.7504         33.5004
 -23486725.12748 -18201225.48746  20484517.2734   20484514.9694
        51.5004         41.5004
  -5309379.47546  -4413922.81042  24590978.7344   24590974.1484
        36.0004         17.2504
 -13531959.45947 -10863085.16245  22726500.8594   22726499.1454
        44.7504         32.7504
 18  7 27  0 24  0.0000000  0 10G13G11G17G28G07G05G09G30G27G08
  -8866963.00646  -6822185.40743  23545309.4614   23545304.6094
        40.5004         20.2504
  -3863341.45845  -4021486.76042  25125347.8204   25125341.1804
        35.7504         15.5004
     31110.84345     41310.44142  25381281.2584   25381274.9104
        33.2504         16.7504
 -17583845.78748 -13689811.27046  20717545.8674   20717540.6094
        48.7504         38.0004
 -25000978.20348 -19463909.12746  20924951.5554   20924946.7234
        49.5004         39.7504
 -12417649.33447  -9650544.23045  23032718.4304   23032714.2504
        46.0004         31.7504
 -12599627.10847  -9791976.71245  22530780.0634   22530778.1804
        47.0004         33.7504
 -23501544.71548 -18212773.22446  20481696.8444   20481694.7774
        51.2504         41.7504
  -5229852.03946  -4351953.43543  24606112.1644   24606108.6604
        36.5004         19.0004
 -13503946.69747 -10841257.02645  22731831.6564   22731829.3324
        43.5004         31.2504
 18  7 27  0 24 30.0000000  0 10G13G11G17G28G07G05G09G30G27G08
  -8966805.70146  -6899984.87243  23526309.7034   23526304.9104
        41.5004         23.0004
  -3941134.52745  -4082104.73842  25110544.2734   25110537.4884
        35.5004         16.2504
    -72810.17645    -39667.01742  25361505.9384   25361499.7344
        35.2504         16.2504
 -17621596.78248 -13719227.62346  20710362.2664   20710357.0784
        49.2504         37.7504
 -24973400.32448 -19442419.88946  20930199.3204   20930194.5314
        49.2504         39.7504
 -12389126.47147  -9628318.62245  23038146.0394   23038141.4694
        45.0004         31.5004
 -12502421.00147  -9716231.71145  22549277.7814   22549276.0554
        46.7504         33.2504
 -23516106.60748 -18224120.14946  20478925.7664   20478923.5784
        51.5004         41.2504
  -5149920.35046  -4289669.00542  24621322.2974   24621319.0824
        36.0004         16.7504
 -13475354.37647 -10818977.29345  22737272.6484   22737270.0274
        43.2504         31.7504
 18  7 27  0 25  0.0000000  0 10G13G11G17G28G07G05G09G30G27G08
  -9066506.94847  -6977674.14343  23507337.6254   23507332.6334
        42.2504         22.5004
  -4018814.03146  -4142634.21842  25095762.7504   25095755.3954
        37.0004         14.7504
   -176840.45846   -120729.55342  25341709.8914   25341703.3364
        37.7504         16.7504
 -17658905.31348 -13748299.19746  20703262.6174   20703257.3324
        49.0004         37.7504
 -24945588.65048 -19420748.44546  20935491.3914   20935487.1454
        50.0004         39.2504
 -12360093.77147  -9605695.75045  23043671.0084   23043666.3794
        45.7504         32.0004
 -12404951.12647  -9640281.17245  22567825.7344   22567823.3954
        47.0004         32.5004
 -23530410.05048 -18235265.68346  20476203.6804   20476201.6214
        51.0004         41.5004
  -5069586.51446  -4227071.27542  24636609.3054   24636606.1884
        36.0004         14.7504
 -13446182.38947 -10796245.86545  22742823.6804   22742821.5354
        46.0004         32.5004
 18  7 27  0 25 30.0000000  0 10G13G11G17G28G07G05G09G30G27G08
  -9166064.46747  -7055251.41043  23488392.6334   23488387.6054
        42.5004         22.2504
  -4096377.20445  -4203073.07242  25081002.6024   25080995.8204
        35.7504         16.2504
   -280978.25346   -201875.87342  25321892.6024   25321886.0394
        36.7504         17.2504
 -17695771.91348 -13777026.41546  20696246.9064   20696242.1414
        49.0004         38.5004
 -24917543.14248 -19398894.82146  20940828.1804   20940824.3134
        50.0004         39.5004
 -12330553.84647  -9582677.63245  23049291.9844   23049288.0554
        45.7504         32.2504
 -12307219.49147  -9564126.66145  22586423.1024   22586420.6684
        46.0004         31.7504
 -23544454.91448 -18246209.73446  20473531.5314   20473528.7194
        51.7504         41.5004
  -4988853.09946  -4164162.10942  24651972.8204   24651968.9534
        36.0004         15.5004
 -13416432.84347 -10773064.39545  22748485.3754   22748483.2344
        45.7504         32.2504
 18  7 27  0 26  0.0000000  0 10G13G11G17G28G07G05G09G30G27G08
  -9265478.81647  -7132717.13343  23469474.2734   23469469.2464
        42.2504         22.2504
  -4173823.48646  -4263420.83242  25066264.3284   25066259.0784
        36.5004         16.7504
   -385223.55046   -283105.95443  25302055.4924   25302049.4654
        38.7504         19.7504
 -17732199.03648 -13805411.18746  20689315.6484   20689310.0314
        48.5004         38.0004
 -24889265.92948 -19376860.63446  20946209.1484   20946205.2034
        48.0004         39.7504
 -12300510.71847  -9559267.42145  23055009.5394   23055005.4304
        43.0004         31.5004
 -12209230.46947  -9487771.58245  22605069.7274   22605067.2154
        46.0004         32.2504
 -23558243.40548 -18256954.01047  20470908.0004   20470905.3754
        51.5004         42.2504
  -4907725.29645  -4100945.65642  24667409.7424   24667407.2114
        35.2504         15.5004
 -13386108.76447 -10749435.23445  22754255.3674   22754253.7814
        45.2504         32.2504
 18  7 27  0 26 30.0000000  0 10G13G11G17G28G07G05G09G30G27G08
  -9364742.34346  -7210065.30643  23450585.3834   23450580.1764
        41.7504         21.7504
  -4251144.52345  -4323670.92942  25051550.8914   25051544.4494
        35.5004         14.7504
   -489568.25146   -364413.43543  25282199.9924   25282193.5864
        38.2504         19.0004
 -17768181.00148 -13833449.07946  20682467.7974   20682462.7424
        49.0004         37.5004
 -24860751.60547 -19354641.69946  20951635.0864   20951630.8634
        47.5004         39.0004
 -12269960.32247  -9535461.92945  23060823.1254   23060818.4534
        43.5004         31.0004
 -12110980.57347  -9411213.21245  22623766.1804   22623763.6484
        46.2504         32.5004
 -23571769.78248 -18267494.02647  20468333.3914   20468331.2464
        52.5004         42.5004
  -4826200.32445  -4037419.71742  24682923.9454   24682920.1524
        34.0004         16.2504
 -13355205.58747 -10725354.84045  22760136.4224   22760133.8914
        45.5004         32.2504
 18  7 27  0 27  0.0000000  0 10G13G11G17G28G07G05G09G30G27G08
  -9463855.57247  -7287296.36743  23431724.9924   23431719.0554
        42.5004         21.2504
  -4328340.18146  -4383823.40242  25036861.5864   25036855.2344
        37.2504         15.5004
   -594013.02846   -445799.02943  25262324.2344   25262318.5204
        37.0004         19.7504
 -17803720.99048 -13861142.57446  20675704.8834   20675699.4304
        48.5004         37.5004
 -24832003.06248 -19332240.26946  20957105.7734   20957101.0354
        48.2504         38.7504
 -12238907.55247  -9511264.97145  23066732.4614   23066728.0394
        46.0004         31.7504
 -12012474.54147  -9334455.27745  22642511.5234   22642509.2734
        46.7504         32.7504
 -23585036.67448 -18277831.85647  20465809.1484   20465806.8364
        52.5004         42.7504
  -4744283.47745  -3973588.43242  24698511.9924   24698508.6454
        34.2504         15.5004
 -13323726.83647 -10700825.94045  22766126.2344   22766124.2304
        45.2504         32.5004
 18  7 27  0 27 30.0000000  0 10G13G11G17G28G07G05G09G30G27G08
  -9562815.83547  -7364408.26443  23412893.2664   23412887.5044
        42.2504         22.0004
  -4405407.53746  -4443875.85142  25022195.3674   25022189.7114
        36.5004         13.7504
   -698555.12846   -527260.37643  25242430.1414   25242424.6564
        38.7504         19.0004
 -17838819.08348 -13888491.75246  20669026.0314   20669020.3014
        48.5004         38.0004
 -24803020.09748 -19309656.14646  20962621.5474   20962616.9964
        49.0004         39.0004
 -12207354.20747  -9486677.95045  23072736.8524   23072732.5474
        46.7504         31.5004
 -11913714.18747  -9257499.18145  22661304.8444   22661302.4964
        47.2504         32.7504
 -23598043.66248 -18287967.17047  20463333.7734   20463331.3524
        52.5004         43.0004
  -4661977.41845  -3909453.85042  24714174.9844   24714171.3014
        34.0004         14.7504
 -13291673.41747 -10675849.24745  22772225.5164   22772223.8284
        45.0004         31.5004
 18  7 27  0 28  0.0000000  0 10G13G11G17G28G07G05G09G30G27G08
  -9661620.57747  -7441398.96743  23394091.2034   23394085.4734
        42.5004         22.5004
  -4482343.33946  -4503825.88842  25007555.9694   25007548.6954
        36.2504         14.7504
   -803191.83146   -608795.46843  25222518.5864   25222513.0594
        37.5004         19.0004
 -17873474.87047 -13915496.25746  20662431.3134   20662425.4844
        47.5004         37.7504
 -24773801.76948 -19286888.62546  20968181.5164   20968176.6174
        50.0004         38.5004
 -12175301.62347  -9461701.92145  23078835.9064   23078831.8674
        46.2504         31.5004
 -11814701.01147  -9180346.06945  22680146.7734   22680144.1564
        47.0004         33.2504
 -23610790.05848 -18297899.42047  20460908.7424   20460906.1454
        52.7504         43.2504
  -4579284.291 5                  24729910.086
        32.000
 -13259046.30547 -10650425.52645  22778434.4304   22778431.8914
        46.5004         31.7504
 18  7 27  0 28 30.0000000  0 10G13G11G17G28G07G05G09G30G27G08
  -9760267.96147  -7518267.06443  23375319.3204   23375313.9224
        42.7504         23.0004
  -4559144.26446  -4563670.73642  24992941.3134   24992934.6604
        36.0004         17.2504
   -907921.16446   -690402.70643  25202589.3754   25202584.2074
        39.7504         20.7504
 -17907688.85147 -13942156.50346  20655920.4384   20655914.2304
        47.7504         37.0004
 -24744348.48348 -19263938.00046  20973786.3984   20973781.3134
        50.5004         38.0004
 -12142752.06047  -9436338.62545  23085029.8204   23085025.9494
